[   {
        "city": "Athens",
        "latitude": 37.9838,
        "longitude": 23.7275
    },
    {
        "city": "London",
        "latitude": 51.5099,
        "longitude": -0.1181
    },
    {
        "city": "Dublin",
        "latitude": 53.3498,
        "longitude": -6.2603
    },
    {
        "city": "Paris",
        "latitude": 48.8566,
        "longitude": 2.3522
    },
    {
        "city": "Madrid",
        "latitude": 40.4168,
        "longitude": -3.7038
    },
    {
        "city": "Barcelona",
        "latitude": 41.3851,
        "longitude": 2.1734
    },
    {
        "city": "Lisbon",
        "latitude": 38.7223,
        "longitude": -9.1393
    },
    {
        "city": "Brussels",
        "latitude": 50.8503,
        "longitude": 4.3517
    },
    {
        "city": "Amsterdam",
        "latitude": 52.3680,
        "longitude": 4.9036
    },
    {
        "city": "Luxembourg",
        "latitude": 49.6205,
        "longitude": 6.1626
    },
    {
        "city": "Berlin",
        "latitude": 52.5200,
        "longitude": 13.4050
    },
    {
        "city": "Munich",
        "latitude": 48.1351,
        "longitude": 11.5820
    },
    {
        "city": "Zurich",
        "latitude": 47.3769,
        "longitude": 8.5417
    },
    {
        "city": "Vienna",
        "latitude": 48.2082,
        "longitude": 16.3738
    },
    {
        "city": "Milan",
        "latitude": 45.4642,
        "longitude": 9.1900
    },
    {
        "city": "Rome",
        "latitude": 41.9028,
        "longitude": 12.4964
    },
    {
        "city": "Prague",
        "latitude": 50.0755,
        "longitude": 14.4378
    },
    {
        "city": "Warsaw",
        "latitude": 52.2297,
        "longitude": 21.0122
    },
    {
        "city": "Bucharest",
        "latitude": 44.4268,
        "longitude": 26.1025
    },
    {
        "city": "Sofia",
        "latitude": 42.6977,
        "longitude": 23.3219
    },
    {
        "city": "Zagreb",
        "latitude": 45.8150,
        "longitude": 15.9819
    },
    {
        "city": "Nicosia",
        "latitude": 35.1856,
        "longitude": 33.3823
    },
    {
        "city": "Copenhagen",
        "latitude": 55.6761,
        "longitude": 12.5683
    },
    {
        "city": "Tallinn",
        "latitude": 59.4370,
        "longitude": 24.7536
    },
    {
        "city": "Helsinki",
        "latitude": 60.1699,
        "longitude": 24.9384
    },
    {
        "city": "Budapest",
        "latitude": 47.4979,
        "longitude": 19.0402
    },
    {
        "city": "Riga",
        "latitude": 56.9496,
        "longitude": 24.1052
    },
    {
        "city": "Vilnius",
        "latitude": 54.6872,
        "longitude": 25.2797
    },
    {
        "city": "Valletta",
        "latitude": 35.8989,
        "longitude": 14.5146
    },
    {
        "city": "Bratislava",
        "latitude": 48.1486,
        "longitude": 17.1077
    },
    {
        "city": "Ljubljana",
        "latitude": 46.0569,
        "longitude": 14.5058
    },
    {
        "city": "Stockholm",
        "latitude": 59.3293,
        "longitude": 18.0686
    }
]